{
  "stores": [
    {
      "id": 3,
      "name": "sotfyboook",
      "logo": "https://cdn-icons-png.flaticon.com/512/5900/5900097.png",
      "phoneNumber": "29191726",
      "isPublished": 1,
      "location": "[33.02881464063997,11.849956512451174]",
      "address": "Zelten, An Nouqat al Khams, Libye",
      "socialMediaLinks": "[\"www.facebook.com\",\"www.instagram.com\"]"
    },
    {
      "id": 14,
      "name": "softgbeli",
      "logo": "https://cdn-icons-png.flaticon.com/512/5900/5900097.png",
      "phoneNumber": "29191726",
      "isPublished": 1,
      "location": "[35.571331599581654,10.186729431152346]",
      "address": "El Makhsouma,Kairouan Sud, Tunisie",
      "socialMediaLinks": "[\"www.facebook.com\"]"
    },
    {
      "id": 15,
      "name": "dejje",
      "logo": "https://cdn-icons-png.flaticon.com/512/5900/5900097.png",
      "phoneNumber": "29191726",
      "isPublished": 1,
      "location": "[34.79209631514749,10.704030990600586]",
      "address": "Merkez Wali, Gremda, Délégation Sfax Sud, Tunisie",
      "socialMediaLinks": "[\"www.twiiter.com\",\"www.yahoo.com\"]"
    },
    {
      "id": 16,
      "name": "Karamel_Shop",
      "logo": "https://cdn-icons-png.flaticon.com/512/5900/5900097.png",
      "phoneNumber": "25225606",
      "isPublished": 1,
      "location": "[36.852365823387,10.331895276904108]",
      "address": "Rue Sana Bayoussef, Carthage Plage, Carthage, Tunisie",
      "socialMediaLinks": "[\"www.jumia.com\",\"www.bengo.tn\",\"www.class.com\"]"
    },
    {
      "id": 17,
      "name": "aminbook",
      "logo": "https://cdn-icons-png.flaticon.com/512/5900/5900097.png",
      "phoneNumber": "29191726",
      "isPublished": 0,
      "location": "[35.777261651781885,10.824183225631716]",
      "address": "Er-Rbat, Délégation Monastir, Tunisie",
      "socialMediaLinks": "[\"www.twiiter.com\",\"www.instagram.com\"]"
    },
    {
      "id": 18,
      "name": "zfeafv",
      "logo": "https://cdn-icons-png.flaticon.com/512/5900/5900097.png",
      "phoneNumber": "29191726",
      "isPublished": 0,
      "location": "[33.946777683283706,9.445152282714846]",
      "address": "Bou Attouch,El Hamma, Gouvernorat Gabès, Tunisie",
      "socialMediaLinks": "[\"www.instagram/AAAZZ.com\"]"
    },
    {
      "id": 19,
      "name": "TakiBooks1",
      "logo": "https://cdn-icons-png.flaticon.com/512/5900/5900097.png",
      "phoneNumber": "25252555",
      "isPublished": 0,
      "location": "[35.8357248,10.6088238]",
      "address": "Softylines DEV",
      "socialMediaLinks": "[\"www.facebook.com\",\"www.facebook.com\"]"
    }
  ]
}
